[
  {
    "session_id": 1,
    "teacher_id": 1,
    "subject_name": "Data Structures and Algorithm",
    "class_name": "III - CSE D",
    "teacher_latitude": 12.669333,
    "teacher_longitude": 79.293134,
    "start_time": "2026-06-25T08:48:36.696Z",
    "end_time": "2026-06-25T08:53:36.696Z",
    "session_status": "COMPLETED"
  },
  {
    "session_id": 2,
    "teacher_id": 2,
    "subject_name": "Discrete Mathematics",
    "class_name": "III - CSE D",
    "teacher_latitude": 12.669333,
    "teacher_longitude": 79.293134,
    "start_time": "2026-06-25T09:48:02.880Z",
    "end_time": "2026-06-25T09:53:02.880Z",
    "session_status": "COMPLETED"
  },
  {
    "session_id": 3,
    "teacher_id": 2,
    "subject_name": "Discrete Mathematics",
    "class_name": "III - CSE D",
    "teacher_latitude": 12.669334019527897,
    "teacher_longitude": 79.2931309530043,
    "start_time": "2026-06-25T09:59:01.140Z",
    "end_time": "2026-06-25T10:04:01.140Z",
    "session_status": "COMPLETED"
  },
  {
    "session_id": 4,
    "teacher_id": 1,
    "subject_name": "FULL STACK DEVELOPMENT",
    "class_name": "III - CSE D",
    "teacher_latitude": 12.669333,
    "teacher_longitude": 79.293134,
    "start_time": "2026-06-25T15:55:13.547Z",
    "end_time": "2026-06-25T16:00:13.547Z",
    "session_status": "COMPLETED"
  },
  {
    "session_id": 5,
    "teacher_id": 1,
    "subject_name": "DSA",
    "class_name": "III - CSE D",
    "teacher_latitude": 12.669334019527897,
    "teacher_longitude": 79.2931309530043,
    "start_time": "2026-06-25T16:08:41.481Z",
    "end_time": "2026-06-25T16:13:41.481Z",
    "session_status": "COMPLETED"
  },
  {
    "session_id": 6,
    "teacher_id": 1,
    "subject_name": "Machine Learning",
    "class_name": "III - CSE C",
    "teacher_latitude": 12.669333,
    "teacher_longitude": 79.293134,
    "start_time": "2026-06-25T16:18:48.145Z",
    "end_time": "2026-06-25T16:23:48.145Z",
    "session_status": "COMPLETED"
  },
  {
    "session_id": 7,
    "teacher_id": 1,
    "subject_name": "DSA",
    "class_name": "III - CSE D",
    "teacher_latitude": 12.66934,
    "teacher_longitude": 79.293106,
    "start_time": "2026-06-26T07:48:13.854Z",
    "end_time": "2026-06-26T07:58:13.854Z",
    "session_status": "COMPLETED"
  },
  {
    "session_id": 8,
    "teacher_id": 2,
    "subject_name": "Data Structures and Algorithm",
    "class_name": "III - CSE D",
    "teacher_latitude": 12.667714381452365,
    "teacher_longitude": 79.28991494631076,
    "start_time": "2026-06-26T09:08:57.552Z",
    "end_time": "2026-06-26T09:18:57.552Z",
    "session_status": "COMPLETED"
  },
  {
    "session_id": 9,
    "teacher_id": 2,
    "subject_name": "CS",
    "class_name": "IV - CSE B",
    "teacher_latitude": 12.667643175991637,
    "teacher_longitude": 79.29008014650258,
    "start_time": "2026-06-26T09:34:12.427Z",
    "end_time": "2026-06-26T09:44:12.427Z",
    "session_status": "COMPLETED"
  },
  {
    "session_id": 10,
    "teacher_id": 2,
    "subject_name": "PP",
    "class_name": "II - ECE C",
    "teacher_latitude": 12.667671345773986,
    "teacher_longitude": 79.29003864360514,
    "start_time": "2026-06-26T09:48:57.379Z",
    "end_time": "2026-06-26T09:58:57.379Z",
    "session_status": "COMPLETED"
  },
  {
    "session_id": 11,
    "teacher_id": 2,
    "subject_name": "Machine Learning",
    "class_name": "I - MECH A",
    "teacher_latitude": 12.667520000000001,
    "teacher_longitude": 79.2901,
    "start_time": "2026-06-26T10:33:03.780Z",
    "end_time": "2026-06-26T10:43:03.780Z",
    "session_status": "COMPLETED"
  },
  {
    "session_id": 12,
    "teacher_id": 2,
    "subject_name": "DSA",
    "class_name": "II -  ECE A",
    "teacher_latitude": 12.667643175991637,
    "teacher_longitude": 79.29008014650258,
    "start_time": "2026-06-26T13:13:24.677Z",
    "end_time": "2026-06-26T13:23:24.677Z",
    "session_status": "COMPLETED"
  },
  {
    "session_id": 13,
    "teacher_id": 2,
    "subject_name": "DSA",
    "class_name": "II -  ECE A",
    "teacher_latitude": 12.667643175991637,
    "teacher_longitude": 79.29008014650258,
    "start_time": "2026-06-26T13:26:05.309Z",
    "end_time": "2026-06-26T13:36:05.309Z",
    "session_status": "COMPLETED"
  },
  {
    "session_id": 14,
    "teacher_id": 2,
    "subject_name": "DSA",
    "class_name": "II - CSE D",
    "teacher_latitude": 12.66934,
    "teacher_longitude": 79.293106,
    "start_time": "2026-06-27T04:06:58.326Z",
    "end_time": "2026-06-27T04:16:58.326Z",
    "session_status": "COMPLETED"
  },
  {
    "session_id": 15,
    "teacher_id": 2,
    "subject_name": "DSA",
    "class_name": "IV - CSE E",
    "teacher_latitude": 12.66934,
    "teacher_longitude": 79.293106,
    "start_time": "2026-06-28T10:04:39.939Z",
    "end_time": "2026-06-28T10:14:39.939Z",
    "session_status": "COMPLETED"
  },
  {
    "session_id": 16,
    "teacher_id": 2,
    "subject_name": "DSA",
    "class_name": "IV - ECE B",
    "teacher_latitude": 12.66916961803292,
    "teacher_longitude": 79.29253175477605,
    "start_time": "2026-06-28T12:50:35.958Z",
    "end_time": "2026-06-28T13:00:35.958Z",
    "session_status": "COMPLETED"
  },
  {
    "session_id": 17,
    "teacher_id": 3,
    "subject_name": "Chemistry",
    "class_name": "12th - BC1",
    "teacher_latitude": 12.66908572029208,
    "teacher_longitude": 79.2921901264832,
    "start_time": "2026-06-28T13:01:22.903Z",
    "end_time": "2026-06-28T13:11:22.903Z",
    "session_status": "COMPLETED"
  },
  {
    "session_id": 18,
    "teacher_id": 2,
    "subject_name": "DSA",
    "class_name": "III - CSE D",
    "teacher_latitude": 12.66934,
    "teacher_longitude": 79.293106,
    "start_time": "2026-06-28T13:58:53.686Z",
    "end_time": "2026-06-28T14:08:53.686Z",
    "session_status": "COMPLETED"
  },
  {
    "session_id": 19,
    "teacher_id": 2,
    "subject_name": "DSA",
    "class_name": "II - ECE B",
    "teacher_latitude": 12.66934,
    "teacher_longitude": 79.293106,
    "start_time": "2026-06-28T14:43:08.529Z",
    "end_time": "2026-06-28T14:53:08.529Z",
    "session_status": "COMPLETED"
  },
  {
    "session_id": 20,
    "teacher_id": 2,
    "subject_name": "DSA",
    "class_name": "II - CSE B",
    "teacher_latitude": 12.66934,
    "teacher_longitude": 79.293106,
    "start_time": "2026-06-28T15:46:53.741Z",
    "end_time": "2026-06-28T15:56:53.741Z",
    "session_status": "COMPLETED"
  },
  {
    "session_id": 21,
    "teacher_id": 2,
    "subject_name": "DM",
    "class_name": "IV - MECH A",
    "teacher_latitude": 12.669334019527897,
    "teacher_longitude": 79.2931309530043,
    "start_time": "2026-06-28T15:56:24.603Z",
    "end_time": "2026-06-28T16:06:24.603Z",
    "session_status": "COMPLETED"
  },
  {
    "session_id": 22,
    "teacher_id": 2,
    "subject_name": "DM",
    "class_name": "II - CSE A",
    "teacher_latitude": 12.669334019527897,
    "teacher_longitude": 79.2931309530043,
    "start_time": "2026-06-28T16:06:57.859Z",
    "end_time": "2026-06-28T16:16:57.859Z",
    "session_status": "COMPLETED"
  },
  {
    "session_id": 23,
    "teacher_id": 2,
    "subject_name": "DM",
    "class_name": "II - MECH A",
    "teacher_latitude": 12.66934,
    "teacher_longitude": 79.293106,
    "start_time": "2026-06-28T16:37:06.578Z",
    "end_time": "2026-06-28T16:47:06.578Z",
    "session_status": "COMPLETED"
  },
  {
    "session_id": 24,
    "teacher_id": 2,
    "subject_name": "DSA",
    "class_name": "I - ECE A",
    "teacher_latitude": 12.669334019527897,
    "teacher_longitude": 79.2931309530043,
    "start_time": "2026-06-28T16:49:41.969Z",
    "end_time": "2026-06-28T16:59:41.969Z",
    "session_status": "COMPLETED"
  },
  {
    "session_id": 25,
    "teacher_id": 2,
    "subject_name": "DSA",
    "class_name": "I - ECE A",
    "teacher_latitude": 12.66934,
    "teacher_longitude": 79.293106,
    "start_time": "2026-06-29T14:17:24.886Z",
    "end_time": "2026-06-29T14:27:24.886Z",
    "session_status": "COMPLETED",
    "time_range": "11:30 AM - 12:15 PM"
  },
  {
    "session_id": 26,
    "teacher_id": 2,
    "subject_name": "DSA",
    "class_name": "I - CSE A",
    "teacher_latitude": 12.66934,
    "teacher_longitude": 79.293106,
    "start_time": "2026-06-29T14:48:01.728Z",
    "end_time": "2026-06-29T14:56:01.728Z",
    "session_status": "COMPLETED",
    "time_range": "10:45 AM - 11:30 AM"
  }
]